{"type": "FeatureCollection", "features": [{"type": "Feature", "geometry": {"type": "Point", "coordinates": [100.22543457036006, 6.639571601123262]}, "properties": {"code": "N01", "name": "Titi Tinggi", "state_name": "", "state": "", "code_parlimen": "P001", "parlimen": "Padang Besar", "type": "dun", "lat": 6.639571601123262, "lng": 100.22543457036006, "total_voters": 2196}}, {"type": "Feature", "geometry": {"type": "Point", "coordinates": [100.19455579822201, 6.672020953594243]}, "properties": {"code": "N02", "name": "Beseri", "state_name": "", "state": "", "code_parlimen": "P001", "parlimen": "Padang Besar", "type": "dun", "lat": 6.672020953594243, "lng": 100.19455579822201, "total_voters": 2955}}, {"type": "Feature", "geometry": {"type": "Point", "coordinates": [100.27636345059192, 6.554500070346656]}, "properties": {"code": "N03", "name": "Chuping", "state_name": "", "state": "", "code_parlimen": "P001", "parlimen": "Padang Besar", "type": "dun", "lat": 6.554500070346656, "lng": 100.27636345059192, "total_voters": 2747}}, {"type": "Feature", "geometry": {"type": "Point", "coordinates": [100.25120896557699, 6.4926992563461905]}, "properties": {"code": "N04", "name": "Mata Ayer", "state_name": "", "state": "", "code_parlimen": "P001", "parlimen": "Padang Besar", "type": "dun", "lat": 6.4926992563461905, "lng": 100.25120896557699, "total_voters": 3209}}, {"type": "Feature", "geometry": {"type": "Point", "coordinates": [100.20766118656435, 6.522069295194103]}, "properties": {"code": "N05", "name": "Santan", "state_name": "", "state": "", "code_parlimen": "P001", "parlimen": "Padang Besar", "type": "dun", "lat": 6.522069295194103, "lng": 100.20766118656435, "total_voters": 1872}}, {"type": "Feature", "geometry": {"type": "Point", "coordinates": [100.1695201484463, 6.509121794974913]}, "properties": {"code": "N06", "name": "Bintong", "state_name": "", "state": "", "code_parlimen": "P002", "parlimen": "Kangar", "type": "dun", "lat": 6.509121794974913, "lng": 100.1695201484463, "total_voters": 2311}}, {"type": "Feature", "geometry": {"type": "Point", "coordinates": [100.21150861464291, 6.463287353500051]}, "properties": {"code": "N07", "name": "Sena", "state_name": "", "state": "", "code_parlimen": "P002", "parlimen": "Kangar", "type": "dun", "lat": 6.463287353500051, "lng": 100.21150861464291, "total_voters": 3222}}, {"type": "Feature", "geometry": {"type": "Point", "coordinates": [100.18550618477786, 6.4437527127778145]}, "properties": {"code": "N08", "name": "Indera Kayangan", "state_name": "", "state": "", "code_parlimen": "P002", "parlimen": "Kangar", "type": "dun", "lat": 6.4437527127778145, "lng": 100.18550618477786, "total_voters": 2469}}, {"type": "Feature", "geometry": {"type": "Point", "coordinates": [100.14411926268757, 6.433284759500041]}, "properties": {"code": "N09", "name": "Kuala Perlis", "state_name": "", "state": "", "code_parlimen": "P002", "parlimen": "Kangar", "type": "dun", "lat": 6.433284759500041, "lng": 100.14411926268757, "total_voters": 3183}}, {"type": "Feature", "geometry": {"type": "Point", "coordinates": [100.16385048310532, 6.418848941210565]}, "properties": {"code": "N10", "name": "Kayang", "state_name": "", "state": "", "code_parlimen": "P002", "parlimen": "Kangar", "type": "dun", "lat": 6.418848941210565, "lng": 100.16385048310532, "total_voters": 1935}}, {"type": "Feature", "geometry": {"type": "Point", "coordinates": [100.27444335932009, 6.4478515624400385]}, "properties": {"code": "N11", "name": "Pauh", "state_name": "", "state": "", "code_parlimen": "P003", "parlimen": "Arau", "type": "dun", "lat": 6.4478515624400385, "lng": 100.27444335932009, "total_voters": 2991}}, {"type": "Feature", "geometry": {"type": "Point", "coordinates": [100.24952110861547, 6.447453425384658]}, "properties": {"code": "N12", "name": "Tambun Tulang", "state_name": "", "state": "", "code_parlimen": "P003", "parlimen": "Arau", "type": "dun", "lat": 6.447453425384658, "lng": 100.24952110861547, "total_voters": 2344}}, {"type": "Feature", "geometry": {"type": "Point", "coordinates": [100.27710679000008, 6.418248793647099]}, "properties": {"code": "N13", "name": "Guar Sanji", "state_name": "", "state": "", "code_parlimen": "P003", "parlimen": "Arau", "type": "dun", "lat": 6.418248793647099, "lng": 100.27710679000008, "total_voters": 1878}}, {"type": "Feature", "geometry": {"type": "Point", "coordinates": [100.15390777587507, 6.361576080250041]}, "properties": {"code": "N14", "name": "Simpang Empat", "state_name": "", "state": "", "code_parlimen": "P003", "parlimen": "Arau", "type": "dun", "lat": 6.361576080250041, "lng": 100.15390777587507, "total_voters": 2408}}, {"type": "Feature", "geometry": {"type": "Point", "coordinates": [100.21634674081255, 6.333557129000046]}, "properties": {"code": "N15", "name": "Sanglang", "state_name": "", "state": "", "code_parlimen": "P003", "parlimen": "Arau", "type": "dun", "lat": 6.333557129000046, "lng": 100.21634674081255, "total_voters": 1683}}]}