{"type": "FeatureCollection", "features": [{"type": "Feature", "geometry": {"type": "Point", "coordinates": [100.2642, 6.6018]}, "properties": {"code": "P001", "name": "Padang Besar", "state": "Perlis", "lng": 100.2642, "lat": 6.6018}}, {"type": "Feature", "geometry": {"type": "Point", "coordinates": [100.1837, 6.4528]}, "properties": {"code": "P002", "name": "Kangar", "state": "Perlis", "lng": 100.1837, "lat": 6.4528}}, {"type": "Feature", "geometry": {"type": "Point", "coordinates": [100.2379, 6.403]}, "properties": {"code": "P003", "name": "Arau", "state": "Perlis", "lng": 100.2379, "lat": 6.403}}, {"type": "Feature", "geometry": {"type": "Point", "coordinates": [99.807, 6.2903]}, "properties": {"code": "P004", "name": "Langkawi", "state": "Kedah", "lng": 99.807, "lat": 6.2903}}, {"type": "Feature", "geometry": {"type": "Point", "coordinates": [100.3268, 6.3331]}, "properties": {"code": "P005", "name": "Jerlun", "state": "Kedah", "lng": 100.3268, "lat": 6.3331}}, {"type": "Feature", "geometry": {"type": "Point", "coordinates": [100.4533, 6.3684]}, "properties": {"code": "P006", "name": "Kubang Pasu", "state": "Kedah", "lng": 100.4533, "lat": 6.3684}}, {"type": "Feature", "geometry": {"type": "Point", "coordinates": [100.6966, 6.2287]}, "properties": {"code": "P007", "name": "Padang Terap", "state": "Kedah", "lng": 100.6966, "lat": 6.2287}}, {"type": "Feature", "geometry": {"type": "Point", "coordinates": [100.4863, 6.1577]}, "properties": {"code": "P008", "name": "Pokok Sena", "state": "Kedah", "lng": 100.4863, "lat": 6.1577}}, {"type": "Feature", "geometry": {"type": "Point", "coordinates": [100.3909, 6.1118]}, "properties": {"code": "P009", "name": "Alor Setar", "state": "Kedah", "lng": 100.3909, "lat": 6.1118}}, {"type": "Feature", "geometry": {"type": "Point", "coordinates": [100.3544, 6.1165]}, "properties": {"code": "P010", "name": "Kuala Kedah", "state": "Kedah", "lng": 100.3544, "lat": 6.1165}}, {"type": "Feature", "geometry": {"type": "Point", "coordinates": [100.5634, 6.0]}, "properties": {"code": "P011", "name": "Pendang", "state": "Kedah", "lng": 100.5634, "lat": 6.0}}, {"type": "Feature", "geometry": {"type": "Point", "coordinates": [100.4792, 5.8141]}, "properties": {"code": "P012", "name": "Jerai", "state": "Kedah", "lng": 100.4792, "lat": 5.8141}}, {"type": "Feature", "geometry": {"type": "Point", "coordinates": [100.835, 5.9585]}, "properties": {"code": "P013", "name": "Sik", "state": "Kedah", "lng": 100.835, "lat": 5.9585}}, {"type": "Feature", "geometry": {"type": "Point", "coordinates": [100.5441, 5.7003]}, "properties": {"code": "P014", "name": "Merbok", "state": "Kedah", "lng": 100.5441, "lat": 5.7003}}, {"type": "Feature", "geometry": {"type": "Point", "coordinates": [100.4823, 5.6017]}, "properties": {"code": "P015", "name": "Sungai Petani", "state": "Kedah", "lng": 100.4823, "lat": 5.6017}}, {"type": "Feature", "geometry": {"type": "Point", "coordinates": [100.8387, 5.7117]}, "properties": {"code": "P016", "name": "Baling", "state": "Kedah", "lng": 100.8387, "lat": 5.7117}}, {"type": "Feature", "geometry": {"type": "Point", "coordinates": [100.633, 5.4743]}, "properties": {"code": "P017", "name": "Padang Serai", "state": "Kedah", "lng": 100.633, "lat": 5.4743}}, {"type": "Feature", "geometry": {"type": "Point", "coordinates": [100.6755, 5.2765]}, "properties": {"code": "P018", "name": "Kulim-Bandar Baharu", "state": "Kedah", "lng": 100.6755, "lat": 5.2765}}, {"type": "Feature", "geometry": {"type": "Point", "coordinates": [102.1521, 6.173]}, "properties": {"code": "P019", "name": "Tumpat", "state": "Kelantan", "lng": 102.1521, "lat": 6.173}}, {"type": "Feature", "geometry": {"type": "Point", "coordinates": [102.2766, 6.1551]}, "properties": {"code": "P020", "name": "Pengkalan Chepa", "state": "Kelantan", "lng": 102.2766, "lat": 6.1551}}, {"type": "Feature", "geometry": {"type": "Point", "coordinates": [102.2594, 6.1214]}, "properties": {"code": "P021", "name": "Kota Bharu", "state": "Kelantan", "lng": 102.2594, "lat": 6.1214}}, {"type": "Feature", "geometry": {"type": "Point", "coordinates": [102.1113, 6.101]}, "properties": {"code": "P022", "name": "Pasir Mas", "state": "Kelantan", "lng": 102.1113, "lat": 6.101}}, {"type": "Feature", "geometry": {"type": "Point", "coordinates": [102.0342, 5.9605]}, "properties": {"code": "P023", "name": "Rantau Panjang", "state": "Kelantan", "lng": 102.0342, "lat": 5.9605}}, {"type": "Feature", "geometry": {"type": "Point", "coordinates": [102.2719, 6.0465]}, "properties": {"code": "P024", "name": "Kubang Kerian", "state": "Kelantan", "lng": 102.2719, "lat": 6.0465}}, {"type": "Feature", "geometry": {"type": "Point", "coordinates": [102.3444, 6.0181]}, "properties": {"code": "P025", "name": "Bachok", "state": "Kelantan", "lng": 102.3444, "lat": 6.0181}}, {"type": "Feature", "geometry": {"type": "Point", "coordinates": [102.2671, 5.968]}, "properties": {"code": "P026", "name": "Ketereh", "state": "Kelantan", "lng": 102.2671, "lat": 5.968}}, {"type": "Feature", "geometry": {"type": "Point", "coordinates": [102.0406, 5.7411]}, "properties": {"code": "P027", "name": "Tanah Merah", "state": "Kelantan", "lng": 102.0406, "lat": 5.7411}}, {"type": "Feature", "geometry": {"type": "Point", "coordinates": [102.3445, 5.8404]}, "properties": {"code": "P028", "name": "Pasir Puteh", "state": "Kelantan", "lng": 102.3445, "lat": 5.8404}}, {"type": "Feature", "geometry": {"type": "Point", "coordinates": [102.2718, 5.7611]}, "properties": {"code": "P029", "name": "Machang", "state": "Kelantan", "lng": 102.2718, "lat": 5.7611}}, {"type": "Feature", "geometry": {"type": "Point", "coordinates": [101.8611, 5.6881]}, "properties": {"code": "P030", "name": "Jeli", "state": "Kelantan", "lng": 101.8611, "lat": 5.6881}}, {"type": "Feature", "geometry": {"type": "Point", "coordinates": [102.2229, 5.5281]}, "properties": {"code": "P031", "name": "Kuala Krai", "state": "Kelantan", "lng": 102.2229, "lat": 5.5281}}, {"type": "Feature", "geometry": {"type": "Point", "coordinates": [101.9337, 4.8663]}, "properties": {"code": "P032", "name": "Gua Musang", "state": "Kelantan", "lng": 101.9337, "lat": 4.8663}}]}