{
  "type": "FeatureCollection",
  "features": [
    { "type": "Feature", "properties": { "code": "P001", "name": "Padang Besar", "state": "Perlis" }, "geometry": { "type": "Point", "coordinates": [100.32, 6.64] } },
    { "type": "Feature", "properties": { "code": "P002", "name": "Kangar", "state": "Perlis" }, "geometry": { "type": "Point", "coordinates": [100.19, 6.44] } },
    { "type": "Feature", "properties": { "code": "P003", "name": "Arau", "state": "Perlis" }, "geometry": { "type": "Point", "coordinates": [100.27, 6.43] } },
    { "type": "Feature", "properties": { "code": "P004", "name": "Langkawi", "state": "Kedah" }, "geometry": { "type": "Point", "coordinates": [99.80, 6.35] } },
    { "type": "Feature", "properties": { "code": "P005", "name": "Jerlun", "state": "Kedah" }, "geometry": { "type": "Point", "coordinates": [100.23, 6.42] } },
    { "type": "Feature", "properties": { "code": "P006", "name": "Kubang Pasu", "state": "Kedah" }, "geometry": { "type": "Point", "coordinates": [100.42, 6.27] } },
    { "type": "Feature", "properties": { "code": "P007", "name": "Padang Terap", "state": "Kedah" }, "geometry": { "type": "Point", "coordinates": [100.66, 6.44] } },
    { "type": "Feature", "properties": { "code": "P008", "name": "Pokok Sena", "state": "Kedah" }, "geometry": { "type": "Point", "coordinates": [100.49, 6.17] } },
    { "type": "Feature", "properties": { "code": "P009", "name": "Alor Setar", "state": "Kedah" }, "geometry": { "type": "Point", "coordinates": [100.37, 6.12] } },
    { "type": "Feature", "properties": { "code": "P010", "name": "Kuala Kedah", "state": "Kedah" }, "geometry": { "type": "Point", "coordinates": [100.30, 6.10] } },
    { "type": "Feature", "properties": { "code": "P011", "name": "Pendang", "state": "Kedah" }, "geometry": { "type": "Point", "coordinates": [100.48, 6.00] } },
    { "type": "Feature", "properties": { "code": "P012", "name": "Jerai", "state": "Kedah" }, "geometry": { "type": "Point", "coordinates": [100.43, 5.77] } },
    { "type": "Feature", "properties": { "code": "P013", "name": "Sik", "state": "Kedah" }, "geometry": { "type": "Point", "coordinates": [100.74, 5.82] } },
    { "type": "Feature", "properties": { "code": "P014", "name": "Merbok", "state": "Kedah" }, "geometry": { "type": "Point", "coordinates": [100.45, 5.72] } },
    { "type": "Feature", "properties": { "code": "P015", "name": "Sungai Petani", "state": "Kedah" }, "geometry": { "type": "Point", "coordinates": [100.49, 5.64] } },
    { "type": "Feature", "properties": { "code": "P016", "name": "Baling", "state": "Kedah" }, "geometry": { "type": "Point", "coordinates": [100.92, 5.67] } },
    { "type": "Feature", "properties": { "code": "P017", "name": "Padang Serai", "state": "Kedah" }, "geometry": { "type": "Point", "coordinates": [100.56, 5.51] } },
    { "type": "Feature", "properties": { "code": "P018", "name": "Kulim-Bandar Baharu", "state": "Kedah" }, "geometry": { "type": "Point", "coordinates": [100.57, 5.34] } },
    { "type": "Feature", "properties": { "code": "P019", "name": "Tumpat", "state": "Kelantan" }, "geometry": { "type": "Point", "coordinates": [102.17, 6.20] } },
    { "type": "Feature", "properties": { "code": "P020", "name": "Pengkalan Chepa", "state": "Kelantan" }, "geometry": { "type": "Point", "coordinates": [102.28, 6.16] } },
    { "type": "Feature", "properties": { "code": "P021", "name": "Kota Bharu", "state": "Kelantan" }, "geometry": { "type": "Point", "coordinates": [102.24, 6.12] } },
    { "type": "Feature", "properties": { "code": "P022", "name": "Pasir Mas", "state": "Kelantan" }, "geometry": { "type": "Point", "coordinates": [102.14, 6.05] } },
    { "type": "Feature", "properties": { "code": "P023", "name": "Rantau Panjang", "state": "Kelantan" }, "geometry": { "type": "Point", "coordinates": [101.97, 6.02] } },
    { "type": "Feature", "properties": { "code": "P024", "name": "Kubang Kerian", "state": "Kelantan" }, "geometry": { "type": "Point", "coordinates": [102.28, 6.09] } },
    { "type": "Feature", "properties": { "code": "P025", "name": "Bachok", "state": "Kelantan" }, "geometry": { "type": "Point", "coordinates": [102.40, 6.06] } },
    { "type": "Feature", "properties": { "code": "P026", "name": "Ketereh", "state": "Kelantan" }, "geometry": { "type": "Point", "coordinates": [102.25, 5.96] } },
    { "type": "Feature", "properties": { "code": "P027", "name": "Tanah Merah", "state": "Kelantan" }, "geometry": { "type": "Point", "coordinates": [102.15, 5.81] } },
    { "type": "Feature", "properties": { "code": "P028", "name": "Pasir Puteh", "state": "Kelantan" }, "geometry": { "type": "Point", "coordinates": [102.40, 5.83] } },
    { "type": "Feature", "properties": { "code": "P029", "name": "Machang", "state": "Kelantan" }, "geometry": { "type": "Point", "coordinates": [102.22, 5.76] } },
    { "type": "Feature", "properties": { "code": "P030", "name": "Jeli", "state": "Kelantan" }, "geometry": { "type": "Point", "coordinates": [101.84, 5.70] } },
    { "type": "Feature", "properties": { "code": "P031", "name": "Kuala Krai", "state": "Kelantan" }, "geometry": { "type": "Point", "coordinates": [102.20, 5.53] } },
    { "type": "Feature", "properties": { "code": "P032", "name": "Gua Musang", "state": "Kelantan" }, "geometry": { "type": "Point", "coordinates": [101.96, 4.88] } }
  ]
}
